City_ID,City,Lat,Lng,Max Temp,Humidity,Cloudiness,Wind Speed,Country,Date
0,tamanrasset,22.785,5.5228,282.1,37,0,2.06,DZ,1731480255
1,bethel,41.3712,-73.414,275.49,61,0,0.89,US,1731480257
2,okhotsk,59.3833,143.3,258.63,70,11,7.16,RU,1731480258
3,basco,20.4487,121.9702,299.98,89,65,6.5,PH,1731480259
4,fort st. john,56.2499,-120.8529,266.09,93,75,2.06,CA,1731480260
5,port-aux-francais,-49.35,70.2167,277.23,69,22,6.48,TF,1731480261
6,banda aceh,5.5577,95.3222,302.3,71,96,2.76,ID,1731480262
7,anadyr,64.75,177.4833,270.43,79,75,6.0,RU,1731480263
8,callao,-12.0667,-77.15,292.44,77,100,3.6,PE,1731480203
9,whitehorse,60.7161,-135.0538,267.58,100,100,1.03,CA,1731480266
10,grytviken,-54.2811,-36.5092,270.81,79,87,3.39,GS,1731480268
11,tshikapa,-6.4167,20.8,300.4,65,88,1.71,CD,1731480269
12,west island,-12.1568,96.8225,302.14,74,20,6.69,CC,1731480270
13,severo-yeniseyskiy,60.3725,93.0408,257.23,89,100,5.01,RU,1731480271
14,port douglas,-16.4833,145.4667,299.56,69,56,2.42,AU,1731480272
15,blackmans bay,-43.0167,147.3167,291.22,58,18,5.39,AU,1731480273
16,talnakh,69.4865,88.3972,251.43,98,100,0.55,RU,1731480274
17,iqaluit,63.7506,-68.5145,256.0,77,40,5.14,CA,1731480275
18,hawaiian paradise park,19.5933,-154.9731,296.41,89,40,0.45,US,1731480276
19,xining,36.6167,101.7667,282.26,58,4,3.07,CN,1731480277
20,puerto ayora,-0.7393,-90.3518,295.12,87,33,2.68,EC,1731480279
21,vorkuta,67.5,64.0,246.06,100,96,1.32,RU,1731480280
22,grand falls-windsor,48.9332,-55.6649,276.76,92,100,3.58,CA,1731480281
23,adamstown,-25.066,-130.1015,294.29,82,95,5.22,PN,1731480282
24,alice springs,-23.7,133.8833,304.9,20,8,4.63,AU,1731480283
25,maues,-3.3836,-57.7186,298.64,69,13,0.91,BR,1731480284
26,nagqu,31.5,92.0,277.0,13,95,6.59,CN,1731480285
27,sanming,26.2486,117.6186,295.71,81,100,1.36,CN,1731480286
28,greenville,35.6127,-77.3663,281.55,84,0,1.54,US,1731480010
29,uturoa,-16.7333,-151.4333,299.19,79,96,6.98,PF,1731480288
30,olonkinbyen,70.9221,-8.7187,269.48,72,100,11.75,SJ,1731480289
31,ushuaia,-54.8,-68.3,280.96,93,100,1.03,AR,1731480291
32,los frentones,-26.4077,-61.4137,287.79,50,1,1.65,AR,1731480292
33,hovd,48.0056,91.6419,275.54,18,89,2.62,MN,1731480293
34,pokhvistnevo,53.6524,52.1274,273.32,79,100,4.57,RU,1731480294
35,tiksi,71.6872,128.8694,249.74,100,91,1.54,RU,1731480295
36,waitangi,-43.9535,-176.5597,284.72,78,2,0.89,NZ,1731480296
37,hasaki,35.7333,140.8333,290.02,51,16,7.82,JP,1731480297
38,mayya,61.7333,130.2811,253.92,99,29,2.07,RU,1731480298
39,camacupa,-12.0167,17.4833,291.4,88,100,0.85,AO,1731480299
40,puerto baquerizo moreno,-0.9,-89.6,293.79,76,41,4.52,EC,1731480006
41,nha trang,12.25,109.1833,302.15,72,57,2.87,VN,1731480302
42,crane,31.3974,-102.3501,291.33,85,3,2.87,US,1731480303
43,santa cruz,-17.8,-63.1667,290.85,77,75,5.14,BO,1731479989
44,kynsperk nad ohri,50.1189,12.5303,274.49,99,100,0.65,CZ,1731480305
45,gadzhiyevo,69.2551,33.3362,275.99,85,100,7.22,RU,1731480306
46,lihue,21.9789,-159.3672,296.92,74,75,7.72,US,1731480307
47,bredasdorp,-34.5322,20.0403,292.26,53,47,5.0,ZA,1731480308
48,nyaungdon,17.0333,95.65,303.75,64,4,3.02,MM,1731480309
49,kokshetau,53.2775,69.3883,265.33,86,75,7.0,KZ,1731480310
50,fale old settlement,-9.3852,-171.2468,302.32,75,4,8.44,TK,1731480311
51,ancud,-41.8697,-73.8203,282.92,93,100,1.06,CL,1731480313
52,edinburgh of the seven seas,-37.0676,-12.3116,289.41,92,100,8.16,SH,1731480314
53,leh,34.1667,77.5833,274.48,29,93,1.83,IN,1731480315
54,thompson,55.7435,-97.8558,277.24,75,75,4.12,CA,1731480316
55,kavieng,-2.5744,150.7967,302.06,73,20,2.36,PG,1731480317
56,college,64.8569,-147.8028,255.87,71,75,1.54,US,1731480318
57,arawa,-6.2132,155.5367,298.3,95,100,2.43,PG,1731480319
58,kodiak,57.79,-152.4072,274.88,60,0,8.23,US,1731480320
59,kirakira,-10.4544,161.9205,300.38,85,100,2.65,SB,1731480321
60,lagunas,-5.2269,-75.6753,295.42,94,100,0.88,PE,1731480322
61,mejit,10.2753,170.8646,301.78,71,6,7.56,MH,1731480324
62,wailua homesteads,22.0669,-159.378,296.59,83,75,7.72,US,1731480325
63,kingston,17.997,-76.7936,298.68,94,75,3.6,JM,1731480326
64,sao gabriel da cachoeira,-0.1303,-67.0892,298.2,82,94,0.39,BR,1731480327
65,ust-nera,64.5667,143.2,242.2,98,82,0.87,RU,1731480328
66,caninde,-4.3589,-39.3117,296.89,77,60,0.82,BR,1731480329
67,hermanus,-34.4187,19.2345,292.48,64,19,6.47,ZA,1731480330
68,puerto natales,-51.7236,-72.4875,280.83,78,100,4.2,CL,1731480299
69,yellowknife,62.456,-114.3525,262.82,96,100,4.12,CA,1731480288
70,qaqortoq,60.7167,-46.0333,274.92,95,100,5.41,GL,1731480333
71,udachny,66.4167,112.4,258.44,96,100,0.74,RU,1731480335
72,stanley,54.868,-1.6985,278.16,100,20,4.63,GB,1731480336
73,longyearbyen,78.2186,15.6401,275.06,87,75,10.8,SJ,1731480168
74,upata,8.0086,-62.3989,295.07,89,100,1.7,VE,1731480338
75,ola,59.5833,151.2833,259.18,73,89,5.89,RU,1731480339
76,floro,61.5996,5.0328,282.13,100,75,2.57,NO,1731480340
77,chigorodo,7.6664,-76.6811,294.6,95,99,2.12,CO,1731480341
78,margaret river,-33.95,115.0667,293.61,59,100,7.01,AU,1731480342
79,constantia,44.1833,28.65,277.53,90,100,5.69,RO,1731480208
80,chonchi,-42.6128,-73.8092,283.77,87,100,0.65,CL,1731480344
81,klyuchi,52.2667,79.1667,266.1,78,100,6.36,RU,1731480345
82,invercargill,-46.4,168.35,288.16,73,0,4.02,NZ,1731480347
83,albany,42.6001,-73.9662,273.38,66,2,1.63,US,1731480243
84,enewetak,11.3474,162.3373,301.82,80,17,6.26,MH,1731480349
85,mount isa,-20.7333,139.5,314.02,15,100,3.09,AU,1731480350
86,carnarvon,-24.8667,113.6333,298.73,58,100,7.09,AU,1731480351
87,ribeira grande,38.5167,-28.7,290.25,90,82,1.79,PT,1731480352
88,punta arenas,-53.15,-70.9167,283.21,66,75,11.32,CL,1731480353
89,codo,-4.4553,-43.8856,295.51,85,99,1.61,BR,1731480354
90,polyarnyy,69.1989,33.4478,275.84,84,100,7.58,RU,1731480356
91,verkhniy baskunchak,48.2256,46.7217,275.44,59,23,1.59,RU,1731480357
92,inongo,-1.95,18.2667,297.38,81,10,1.24,CD,1731480358
93,jamestown,42.097,-79.2353,271.95,95,0,0.45,US,1731480079
94,haiku-pauwela,20.9219,-156.3051,296.62,77,40,7.15,US,1731480360
95,lata,40.1629,-8.3327,278.84,67,0,3.42,PT,1731480361
96,machico,32.7,-16.7667,293.5,75,40,4.12,PT,1731480362
97,papatowai,-46.5619,169.4708,286.22,83,48,1.82,NZ,1731480363
98,watertown,42.3709,-71.1828,275.16,56,0,3.6,US,1731480365
99,dombarovskiy,50.7587,59.5386,270.34,92,99,7.69,RU,1731480367
100,sierra grande,-41.606,-65.3557,287.56,43,8,6.02,AR,1731480368
101,weihai,37.5017,122.1136,288.95,52,100,3.37,CN,1731480369
102,inhambane,-23.865,35.3833,302.51,60,6,2.22,MZ,1731480370
103,sitka,57.0531,-135.33,277.09,87,20,2.06,US,1731480371
104,kirkwall,58.9848,-2.9587,283.69,93,75,6.69,GB,1731480372
105,pakokku,21.3333,95.1,303.19,55,6,3.67,MM,1731480373
106,isangel,-19.55,169.2667,302.21,74,20,2.57,VU,1731480374
107,colonia,50.9333,6.95,279.28,88,20,3.09,DE,1731480375
108,kavadarci,41.4331,22.0119,279.6,83,100,0.47,MK,1731480377
109,fort mcmurray,56.7268,-111.381,267.92,79,100,5.14,CA,1731480378
110,willard,41.0531,-82.7263,274.48,66,20,3.04,US,1731480270
111,tura,25.5198,90.2201,300.72,48,0,1.21,IN,1731480380
112,gaspe,48.8334,-64.4819,271.27,64,75,6.69,CA,1731480381
113,ilulissat,69.2167,-51.1,271.16,54,100,12.35,GL,1731480383
114,horqueta,-23.3428,-57.0597,284.8,84,0,2.0,PY,1731480384
115,la ronge,55.1001,-105.2842,274.29,69,0,3.09,CA,1731480386
116,dudinka,69.4058,86.1778,243.49,99,92,1.35,RU,1731480387
117,fortuna,40.5982,-124.1573,286.47,70,100,7.2,US,1731480388
118,nadiad,22.7,72.8667,305.38,27,0,2.44,IN,1731480331
119,aasiaat,68.7098,-52.8699,268.49,74,100,8.52,GL,1731480391
120,codrington,-38.2667,141.9667,288.11,62,5,6.76,AU,1731480392
121,port elizabeth,-33.918,25.5701,291.66,96,100,5.66,ZA,1731480353
122,georgetown,5.4112,100.3354,303.12,67,20,4.63,MY,1731480245
123,dalai,45.5,124.3,283.93,34,7,5.52,CN,1731480395
124,necochea,-38.5473,-58.7368,282.91,70,100,3.54,AR,1731480332
125,alta,69.9689,23.2717,279.74,87,75,2.57,NO,1731480399
126,singaraja,-8.112,115.0882,303.26,73,70,1.97,ID,1731480400
127,hadibu,12.65,54.0333,300.06,66,10,5.09,YE,1731480401
128,kerch,45.3583,36.4758,280.54,81,77,5.56,UA,1731480402
129,johnstown,40.3267,-78.922,273.88,80,0,3.09,US,1731480403
130,afaahiti,-17.75,-149.2833,297.29,75,100,7.73,PF,1731480404
131,afonso bezerra,-5.4983,-36.5056,296.98,84,15,5.15,BR,1731480405
132,cannonvale,-20.2833,148.7,300.81,69,81,4.43,AU,1731480406
133,sawakin,19.1059,37.3321,302.17,66,47,6.0,SD,1731480408
134,mananjary,-21.2167,48.3333,302.48,56,0,4.16,MG,1731480409
135,vilyuchinsk,52.9306,158.4028,270.3,78,3,4.2,RU,1731480410
136,raduzhny,62.0961,77.475,253.44,91,100,2.08,RU,1731480411
137,guane,22.2025,-84.0875,296.85,96,11,2.12,CU,1731480412
138,yuanping,38.7153,112.7575,282.47,88,100,0.14,CN,1731480413
139,iskateley,67.6803,53.1512,266.39,94,100,4.89,RU,1731480414
140,neryungri,56.6709,124.6491,260.75,92,45,3.08,RU,1731480415
141,balpyk bi,44.8947,78.2083,276.23,97,100,2.0,KZ,1731480416
142,weno,7.4515,151.8468,299.12,89,100,1.54,FM,1731480417
143,tazovsky,67.4667,78.7,248.68,97,100,3.89,RU,1731480419
144,dunedin,-45.8742,170.5036,286.37,96,43,4.02,NZ,1731480256
145,happy valley-goose bay,53.3168,-60.3315,265.32,67,20,6.69,CA,1731480421
146,murzuq,25.9155,13.9184,290.79,27,70,3.74,LY,1731480422
147,port alfred,-33.5906,26.891,292.14,78,46,4.47,ZA,1731480423
148,cuprija,43.9275,21.37,277.82,84,100,0.48,RS,1731480424
149,kupang,-10.1667,123.5833,309.47,44,20,7.72,ID,1731480230
150,alva,56.1528,-3.8051,276.44,93,100,2.31,GB,1731480426
151,tingo maria,-9.2895,-76.0088,293.32,99,100,0.51,PE,1731480427
152,vadso,70.0744,29.7487,277.24,81,75,6.69,NO,1731480428
153,nadi,-17.8,177.4167,301.15,78,40,1.54,FJ,1731480430
154,minas de marcona,-15.2119,-75.1103,286.06,86,69,1.83,PE,1731480431
155,tolanaro,-25.0319,46.9987,301.19,78,75,3.6,MG,1731480432
156,kas,36.2018,29.6377,294.82,37,8,1.93,TR,1731480160
157,taroa,8.7058,171.2275,301.68,79,86,7.23,MH,1731480434
158,tobol'sk,58.2,68.2667,261.13,87,100,4.33,RU,1731480435
159,tateyama,34.9833,139.8667,290.87,67,25,7.19,JP,1731480436
160,oranjemund,-28.55,16.4333,290.42,64,6,6.42,NA,1731480437
161,bilibino,68.0546,166.4372,245.82,100,67,0.57,RU,1731480438
162,qamdo,31.1667,97.2333,280.19,15,4,4.31,CN,1731480439
163,st. john's,47.5649,-52.7093,286.01,99,100,6.17,CA,1731480232
164,rongelap,11.1635,166.8941,301.52,72,4,7.18,MH,1731480442
165,tiquipaya,-17.3382,-66.2189,289.55,63,75,4.12,BO,1731480443
166,atafu village,-8.5421,-172.5159,301.62,76,0,6.36,TK,1731480444
167,panacan,9.2463,118.4082,302.01,72,70,1.31,PH,1731480445
168,margate,51.3813,1.3862,283.64,80,100,4.48,GB,1731480446
169,boaz,34.2006,-86.1664,286.3,68,0,3.6,US,1731480447
170,utrik,11.2278,169.8474,301.61,71,1,7.07,MH,1731480448
171,chimore,-16.9833,-65.1333,292.42,72,100,0.32,BO,1731480449
172,onega,63.9061,38.1404,274.75,86,100,4.99,RU,1731480451
173,merizo village,13.2658,144.6691,302.46,85,100,11.88,GU,1731480452
174,novobureyskiy,49.798,129.8774,271.3,59,100,3.79,RU,1731480453
175,sisimiut,66.9395,-53.6735,270.26,78,100,6.57,GL,1731480281
176,dryden,49.7833,-92.7503,275.31,75,20,6.69,CA,1731480455
177,tenenkou,14.4572,-4.9169,296.83,21,4,3.68,ML,1731480456
178,bozdar wada,27.1828,68.636,305.71,22,0,1.49,PK,1731480457
179,butembo,0.15,29.2833,295.65,53,96,1.01,CD,1731480458
180,narvik,68.4384,17.4272,280.52,87,98,10.12,NO,1731480291
181,altai,46.3722,96.2583,271.29,58,24,11.24,MN,1731480460
182,westport,41.1415,-73.3579,277.02,56,0,6.69,US,1731480454
183,nova sintra,14.8667,-24.7167,299.3,66,7,3.35,CV,1731480463
184,hithadhoo,-0.6,73.0833,301.38,74,99,6.7,MV,1731480464
185,natal,-5.795,-35.2094,299.27,83,20,3.6,BR,1731480465
186,tazacorte,28.629,-17.9293,292.69,73,75,1.54,ES,1731480466
187,taoudenni,22.6783,-3.9836,294.95,23,0,2.75,ML,1731480467
188,brookings,44.3114,-96.7984,279.36,82,100,9.77,US,1731480391
189,sinop,41.7711,34.8709,285.57,69,99,1.16,TR,1731480469
190,santana do livramento,-30.8908,-55.5328,285.99,99,1,2.18,BR,1731480471
191,carauari,-4.8828,-66.8958,298.09,77,98,1.44,BR,1731480473
192,anloga,5.7947,0.8973,300.85,77,89,2.43,GH,1731480474
193,ta`u,-14.2336,-169.5144,300.27,84,43,10.51,AS,1731480475
194,pemba,-12.974,40.5178,301.54,83,40,0.0,MZ,1731480476
195,bandar lampung,-5.4254,105.258,303.65,71,35,1.71,ID,1731480425
196,ciudad lazaro cardenas,17.9583,-102.2,297.54,89,100,1.66,MX,1731480478
197,san pedro pochutla,15.7333,-96.4667,297.43,87,87,1.89,MX,1731480372
198,poronaysk,49.2167,143.1167,271.36,45,0,3.5,RU,1731480480
199,correntina,-13.3433,-44.6367,292.67,97,59,1.23,BR,1731480482
200,escanaba,45.7453,-87.0646,280.13,70,100,5.14,US,1731480347
201,vydrino,51.485,104.8461,269.62,48,78,1.56,RU,1731480484
202,badger,64.8,-147.5333,255.27,76,75,1.54,US,1731480485
203,island harbour,50.724,-1.2758,282.19,68,100,1.79,GB,1731480487
204,hami,42.8,93.45,285.91,40,100,0.62,CN,1731480488
205,kangding,30.0513,101.9603,291.28,31,16,1.12,CN,1731480489
206,as sulayyil,20.4607,45.5779,299.96,19,0,2.56,SA,1731480490
207,portland,45.5234,-122.6762,283.6,91,100,1.34,US,1731480003
208,kargil,34.5667,76.1,275.01,28,100,0.76,IN,1731480492
209,kurumkan,54.3,110.3,268.99,54,17,3.64,RU,1731480493
210,orange walk,17.8333,-88.8333,294.72,97,70,1.14,BZ,1731480495
211,pemangkat,1.1667,108.9667,302.76,67,97,2.98,ID,1731480496
212,saipan,15.1355,145.701,302.54,86,75,6.17,MP,1731480497
213,nouadhibou,20.931,-17.0347,292.63,79,0,7.33,MR,1731480498
214,tamandare,-8.7597,-35.1047,297.33,81,14,4.44,BR,1731480499
215,sitia,35.2,26.0986,293.93,73,1,3.31,GR,1731480232
216,coxen hole,16.3244,-86.5366,298.75,83,20,1.03,HN,1731480501
217,dalandzadgad,43.5708,104.425,282.28,23,5,2.35,MN,1731480502
218,posse,-14.0931,-46.3694,293.29,96,100,0.98,BR,1731480503
219,shimanovsk,52.0,127.7,269.62,77,100,4.17,RU,1731480506
220,srivardhan,18.0333,73.0167,304.59,41,5,1.0,IN,1731480508
221,richards bay,-28.783,32.0377,296.17,78,86,9.07,ZA,1731480509
222,luganville,-15.5333,167.1667,299.1,88,100,3.79,VU,1731480510
223,selkirk,50.1436,-96.8845,279.92,71,100,4.92,CA,1731480511
224,revda,56.801,59.9303,268.61,86,100,3.39,RU,1731480512
225,junin de los andes,-39.9504,-71.0694,277.68,83,1,3.24,AR,1731480243
226,forster,-32.1667,152.5167,295.03,89,100,3.32,AU,1731480514
227,dellys,36.9172,3.9131,289.08,62,100,3.78,DZ,1731480516
228,danielskuil,-28.1887,23.5395,298.12,14,0,1.78,ZA,1731480517
229,la sarre,48.8002,-79.1996,268.56,87,22,2.76,CA,1731480250
230,torbat-e jam,35.244,60.6225,282.36,76,100,4.51,IR,1731480519
231,sibolga,1.7427,98.7792,303.24,67,91,2.51,ID,1731480520
232,alofi,-19.0595,-169.9187,297.09,83,75,5.14,NU,1731480521
233,isafjordur,66.0755,-23.124,275.84,77,9,18.24,IS,1731480522
234,semey,50.4111,80.2275,265.27,62,0,4.0,KZ,1731480523
235,shanhaiguan,39.9988,119.7564,286.28,91,100,0.49,CN,1731480524
236,nova vicosa,-17.8919,-39.3719,297.46,89,0,4.72,BR,1731480525
237,cheremukhovo,60.3484,59.9851,265.67,83,100,2.01,RU,1731480316
238,champerico,14.3,-91.9167,298.56,86,97,2.42,GT,1731480528
239,ulladulla,-35.35,150.4667,289.95,95,100,1.85,AU,1731480529
240,saldanha,-33.0117,17.9442,293.18,68,0,10.3,ZA,1731480359
241,miri,4.4148,114.0089,303.23,79,40,2.06,MY,1731480259
242,quibala,-10.7337,14.98,292.32,91,100,1.82,AO,1731480532
243,egilsstadir,65.2653,-14.3948,281.1,39,100,13.89,IS,1731480533
244,micheweni,-4.9667,39.8333,302.29,67,6,1.91,TZ,1731480534
245,geneina,13.45,22.45,297.0,18,0,7.6,SD,1731480535
246,greymouth,-42.4667,171.2,285.1,69,99,1.64,NZ,1731480536
247,alo,6.5486,4.2686,298.67,89,99,1.03,NG,1731480538
248,port mathurin,-19.6833,63.4167,297.75,81,35,7.74,MU,1731480539
249,lynden,48.9465,-122.4521,283.56,90,100,9.26,US,1731480540
250,moreira sales,-24.0622,-53.0069,286.35,86,0,3.38,BR,1731480541
251,pombas,17.1503,-25.0201,291.44,76,8,3.71,CV,1731480542
252,batatais,-20.8911,-47.585,293.0,73,98,0.65,BR,1731480543
253,masterton,-40.9597,175.6575,288.05,82,39,4.09,NZ,1731480544
254,al jawf,29.5,38.75,292.41,43,100,2.59,SA,1731480545
255,peranampattu,12.9333,78.7167,298.01,88,100,5.19,IN,1731480546
256,axim,4.8699,-2.2405,299.39,82,61,1.57,GH,1731480547
257,itoman,26.1247,127.6694,300.16,78,75,5.66,JP,1731480548
258,agropoli,40.3469,14.9966,285.83,79,100,2.68,IT,1731480550
259,ostroda,53.6967,19.9649,273.6,66,8,0.73,PL,1731480552
260,kruisfontein,-34.0033,24.7314,289.2,79,100,6.01,ZA,1731480553
261,lijiang,26.8688,100.2207,290.92,29,0,2.69,CN,1731480554
262,praid,46.55,25.1333,275.43,90,100,0.91,RO,1731480556
263,provins,48.5833,3.1667,277.45,88,100,3.86,FR,1731480557
264,newton,42.337,-71.2092,274.99,56,0,3.6,US,1731480509
265,laguna,38.421,-121.4238,282.23,89,0,3.09,US,1731480560
266,black forest,39.0131,-104.7008,273.28,77,0,4.63,US,1731480295
267,imperatriz,-5.5264,-47.4917,299.18,57,0,1.03,BR,1731480562
268,galax,36.6612,-80.924,278.76,75,0,2.57,US,1731480563
269,wilhelmsburg,48.1057,15.6054,274.82,99,1,0.48,AT,1731480564
270,mount gambier,-37.8333,140.7667,288.59,59,38,4.27,AU,1731480288
271,lompoc,34.6391,-120.4579,285.55,65,0,3.09,US,1731480566
272,peniche,39.3558,-9.3811,283.82,72,0,7.73,PT,1731480567
273,cururupu,-1.8283,-44.8683,295.68,95,69,0.74,BR,1731480568
274,kavaratti,10.5669,72.642,302.03,66,100,2.74,IN,1731480569
275,araioses,-2.89,-41.9031,298.15,83,7,3.74,BR,1731480571
276,hamilton,39.1834,-84.5333,279.62,76,75,5.66,US,1731480148
277,police,53.5521,14.5718,279.63,86,98,1.69,PL,1731480573
278,broken hill,-31.95,141.4333,298.96,16,0,7.81,AU,1731480574
279,beli,7.8587,10.9719,300.42,47,18,0.37,NG,1731480575
280,eusebio ayala,-25.4,-56.9667,287.56,43,0,1.92,PY,1731480576
281,coahuayana de hidalgo,18.7,-103.6583,296.97,94,100,1.5,MX,1731480577
282,yaren,-0.5472,166.916,302.05,66,39,6.5,NR,1731480578
283,changli,39.7042,119.1506,285.12,82,100,0.89,CN,1731480579
284,mar del plata,-38.0023,-57.5575,285.42,66,100,3.58,AR,1731480121
285,opuwo,-18.0607,13.84,298.72,25,100,1.36,NA,1731480582
286,amahai,-3.3333,128.9167,300.47,79,97,2.23,ID,1731480583
287,hinton,53.4001,-117.5857,269.21,91,36,2.06,CA,1731480584
288,bargaal,11.2864,51.0773,302.04,50,0,7.14,SO,1731480585
289,trelleborg,55.3751,13.1569,276.56,74,75,0.83,SE,1731480586
290,nieuw amsterdam,5.8833,-55.0833,298.08,89,15,4.06,SR,1731480587
291,nantucket,41.2835,-70.0995,279.21,52,100,14.16,US,1731480588
292,ust'-ilimsk,58.0006,102.6619,264.1,73,100,4.9,RU,1731480589
293,smithers,54.7804,-127.1743,274.33,100,100,2.06,CA,1731480590
294,kindu,-2.95,25.95,301.84,59,22,0.57,CD,1731480591
295,la passe,45.5549,-0.8967,279.59,90,11,6.99,FR,1731480593
296,cabo san lucas,22.8909,-109.9124,297.46,58,2,2.68,MX,1731480530
297,cooma,-36.2333,149.1333,293.25,47,100,2.66,AU,1731480595
298,port lincoln,-34.7333,135.8667,290.17,58,18,6.75,AU,1731480596
299,tsiombe,-25.3,45.4833,305.4,42,95,3.03,MG,1731480597
300,mahdishahr,35.7108,53.3556,280.05,66,100,2.0,IR,1731480598
301,northam,51.0333,-4.2167,280.71,89,98,3.61,GB,1731480599
302,sao jose da coroa grande,-8.8978,-35.1478,298.31,74,72,5.0,BR,1731480600
303,pathein,16.7833,94.7333,303.65,66,24,2.87,MM,1731480601
304,fort bragg,35.139,-79.006,283.61,71,0,2.24,US,1731480602
305,lebu,-37.6167,-73.65,284.03,92,1,8.69,CL,1731480386
306,zakamensk,50.3741,103.2863,269.23,64,99,2.17,RU,1731480605
307,salym,60.0625,71.4789,258.35,86,100,2.87,RU,1731480606
308,kone,-21.0595,164.8658,299.4,66,99,0.86,NC,1731480607
309,aykhal,66.0,111.5,259.14,96,100,1.59,RU,1731480608
310,rouissat,31.9243,5.3502,284.19,66,20,2.06,DZ,1731480609
311,visby,57.6409,18.296,278.27,87,75,3.09,SE,1731480610
312,kani keli,-12.9536,45.1033,300.74,71,4,2.75,YT,1731480611
313,jalalaqsi,3.3766,45.5996,303.69,52,80,3.99,SO,1731480612
314,yamada,39.4667,141.95,281.31,67,7,1.51,JP,1731480613
315,new norfolk,-42.7826,147.0587,292.55,50,19,3.78,AU,1731480614
316,avarua,-21.2078,-159.775,296.18,73,75,4.12,CK,1731480616
317,camarinas,43.1311,-9.1817,284.78,71,0,12.52,ES,1731480617
318,magadan,59.5667,150.8,258.81,74,90,4.68,RU,1731480620
319,vranov nad toplou,48.8884,21.6848,272.56,79,100,1.48,SK,1731480621
320,prado,-17.3411,-39.2208,297.08,92,7,4.75,BR,1731480622
321,palikir - national government center,6.9248,158.1611,302.56,79,100,2.06,FM,1731480623
322,pont rouge,48.8833,-72.0825,268.34,83,3,2.28,CA,1731480625
323,sosenskiy,54.059,35.9623,272.55,88,21,2.61,RU,1731480626
324,nanyuki,0.0167,37.0728,293.45,63,6,1.61,KE,1731480627
325,new plymouth,-39.0667,174.0833,290.55,100,100,0.5,NZ,1731480628
326,san agustin de valle fertil,-30.6335,-67.4682,291.82,36,0,0.36,AR,1731480629
327,bamboo flat,11.7,92.7167,304.2,74,40,3.6,IN,1731480630
328,qaryat suluq,31.6682,20.2521,292.68,36,54,5.38,LY,1731480631
329,francistown,-21.17,27.5079,293.03,84,100,4.61,BW,1731480632
330,vila franca do campo,37.7167,-25.4333,291.42,99,95,3.48,PT,1731480634
331,portel,-1.9356,-50.8211,297.38,85,7,2.13,BR,1731480636
332,bonthe,7.5264,-12.505,298.32,83,93,1.34,SL,1731480637
333,peskovka,59.0448,52.3606,271.29,91,100,3.21,RU,1731480638
334,shendi,16.6915,33.4341,302.61,46,0,7.56,SD,1731480639
335,vorgashor,67.5833,63.95,246.04,100,98,1.48,RU,1731480640
336,fiambala,-27.6871,-67.6149,291.56,44,0,1.93,AR,1731480641
337,samana,19.2056,-69.3369,296.64,95,90,2.09,DO,1731480642
338,troitsko-pechorsk,62.7084,56.1964,268.09,95,100,3.11,RU,1731480643
339,caconda,-13.7333,15.0667,293.26,68,89,3.39,AO,1731480645
340,victoria point,-27.5833,153.3,300.32,81,36,5.26,AU,1731480646
341,mahina,-17.5065,-149.489,300.02,74,0,3.09,PF,1731480647
342,undurkhaan,47.3194,110.6556,277.96,38,0,5.2,MN,1731480441
343,nguigmi,14.2495,13.1092,298.67,22,5,7.33,NE,1731480649
344,aur,8.1499,171.1687,301.57,79,100,7.61,MH,1731480651
345,susuman,62.7833,148.1667,246.18,100,97,1.29,RU,1731480652
346,wankyi,7.7392,-2.1046,296.16,82,74,1.07,GH,1731480653
347,malango,-2.9627,119.9001,297.49,90,58,1.38,ID,1731480654
348,tahe,52.3333,124.7333,269.36,89,58,0.64,CN,1731480655
349,coquimbo,-29.9533,-71.3436,288.0,96,100,1.03,CL,1731480656
350,suva,-18.1416,178.4415,298.86,83,75,2.06,FJ,1731480657
351,divrigi,39.371,38.1137,283.14,57,16,0.65,TR,1731480658
352,klaksvik,62.2266,-6.589,281.73,80,98,16.61,FO,1731480659
353,petauke,-14.2426,31.3253,303.41,37,61,3.64,ZM,1731480660
354,kailua-kona,19.6406,-155.9956,297.35,88,15,0.86,US,1731480662
355,vilhena,-12.7406,-60.1458,292.77,99,100,2.16,BR,1731480663
356,jilin,43.0,126.0,282.3,42,0,3.1,CN,1731480664
357,gotsucho,35.0,132.2167,290.06,63,0,4.92,JP,1731480665
358,mana,5.6592,-53.7767,298.98,82,2,4.73,GF,1731480666
359,keflavik,64.0049,-22.5624,280.39,70,75,12.86,IS,1731480667
360,mildura,-34.2,142.15,298.75,33,0,8.06,AU,1731480668
361,bambui,-20.0064,-45.9769,293.93,81,6,0.92,BR,1731480669
362,freetown,8.484,-13.2299,296.99,94,75,1.54,SL,1731480670
363,igarka,67.4667,86.5833,250.7,97,95,2.28,RU,1731480671
364,douentza,14.9951,-2.9517,298.08,20,98,1.2,ML,1731480673
365,price,39.5994,-110.8107,272.74,64,0,3.09,US,1731480674
366,kiama,-34.6833,150.8667,295.03,78,100,3.58,AU,1731480675
367,saint-joseph,-21.3667,55.6167,301.36,70,19,3.3,RE,1731480676
368,petawawa,45.9001,-77.3328,269.14,84,0,0.6,CA,1731480677
369,salalah,17.0151,54.0924,304.2,30,0,2.57,OM,1731480678
370,kayangel,8.0823,134.7173,302.06,68,39,1.64,PW,1731480679
371,lorca,37.6712,-1.7017,283.16,82,100,2.64,ES,1731480680
372,aldergrove,49.058,-122.4709,282.84,94,100,2.06,CA,1731480681
373,arteche,12.2645,125.4048,301.85,78,100,2.54,PH,1731480682
374,swift current,50.2834,-107.8014,273.6,74,0,4.63,CA,1731480685
375,caleta de carquin,-11.0925,-77.6267,290.88,87,100,2.3,PE,1731480686
376,nurota,40.5614,65.6886,278.79,79,100,4.36,UZ,1731480687
377,nanlong,31.3533,106.0631,289.14,91,100,1.75,CN,1731480688
378,tralee,52.2704,-9.7026,278.57,80,6,1.5,IE,1731480689
379,bileca,42.8719,18.4297,277.34,59,43,2.68,BA,1731480690
380,ingeniero guillermo n. juarez,-23.9,-61.85,287.32,62,1,1.44,AR,1731480692
381,marijampole,54.5667,23.35,272.38,75,10,1.49,LT,1731480694
382,lancaster,40.2504,-76.2499,274.16,75,0,2.06,US,1731480695
383,nefta,33.8731,7.8777,288.29,50,28,1.79,TN,1731480696
384,kolin,50.0281,15.2006,275.5,94,100,1.03,CZ,1731480697
385,xique xique,-10.8217,-42.7311,296.29,80,100,1.73,BR,1731480698
386,alliance,40.9153,-81.1059,274.07,80,0,4.17,US,1731480700
387,pico truncado,-46.7949,-67.9573,283.91,62,98,12.09,AR,1731480702
388,karratha,-20.7377,116.8463,308.98,28,44,8.81,AU,1731480703
389,vila velha,-20.3297,-40.2925,298.12,92,20,4.63,BR,1731480704
390,aurora,39.7294,-104.8319,279.9,62,75,4.12,US,1731480705
391,valparaiso,-33.0393,-71.6273,286.95,76,0,2.57,CL,1731480642
392,sos'va,59.1766,61.8558,264.55,82,100,0.69,RU,1731480709
393,wundanyi,-3.4019,38.364,295.63,53,3,2.2,KE,1731480710
394,al ghayzah,16.2079,52.176,303.99,24,5,0.85,YE,1731480711
395,dibba al-hisn,25.6196,56.2729,304.87,30,0,0.6,AE,1731480712
396,harper,4.375,-7.7169,298.84,86,67,2.33,LR,1731480713
397,cuatro cienegas de carranza,26.9833,-102.0833,293.5,73,2,0.75,MX,1731480714
398,massaguet,12.4755,15.4365,301.27,17,18,6.45,TD,1731480715
399,ghat,24.9647,10.1728,293.4,24,100,2.55,LY,1731480716
400,gokwe,-18.2048,28.9349,300.24,43,45,3.26,ZW,1731480718
401,kapa'a,22.0752,-159.319,297.33,81,75,7.72,US,1731480720
402,howrah,22.5892,88.3103,303.15,51,20,3.6,IN,1731480721
403,lazaro cardenas,17.9583,-102.2,297.54,89,100,1.66,MX,1731480478
404,baja,46.175,18.9564,277.05,70,100,0.44,HU,1731480723
405,zyryanskoye,56.8306,86.6258,262.57,75,100,5.05,RU,1731480724
406,madaba,31.5833,35.6667,293.11,57,0,1.46,JO,1731480725
407,mwene-ditu,-7.0,23.45,298.15,65,76,2.11,CD,1731480726
408,arraial do cabo,-22.9661,-42.0278,296.13,92,90,7.06,BR,1731480617
409,phan rang-thap cham,11.5667,108.9833,302.82,67,89,3.57,VN,1731480728
410,vetluga,57.8557,45.781,273.2,85,100,2.83,RU,1731480729
411,cole harbour,44.6724,-63.4751,275.89,88,100,4.47,CA,1731480731
412,newman,37.3138,-121.0208,280.96,74,87,0.68,US,1731480537
413,bukama,-9.2,25.85,301.69,55,15,0.58,CD,1731480733
414,mournies,35.4764,24.0092,302.19,100,20,0.0,GR,1731480734
415,kaohsiung,22.6163,120.3133,303.12,85,40,4.12,TW,1731480735
416,taro,-8.3862,115.28,302.48,51,22,1.17,ID,1731480736
417,petropavlovsk-kamchatsky,53.0452,158.6483,269.48,46,0,3.0,RU,1731480737
418,grand-lahou,5.1367,-5.0242,298.71,86,36,1.25,CI,1731480738
419,puerto cabezas,14.0351,-83.3888,296.84,96,100,2.46,NI,1731480734
420,cadale,2.7603,46.3222,301.59,70,98,4.39,SO,1731480740
421,akwanga,8.9167,8.3833,298.3,39,75,0.95,NG,1731480742
422,san carlos,9.6612,-68.5827,295.3,90,74,1.72,VE,1731480743
423,korla,41.7597,86.1469,285.07,40,99,2.39,CN,1731480744
424,pruzhany,52.5567,24.4644,273.18,84,100,1.76,BY,1731480745
425,flin flon,54.7682,-101.865,274.01,83,100,2.96,CA,1731480746
426,penapolis,-21.4197,-50.0775,295.54,89,96,1.74,BR,1731480749
427,barabai,-2.5833,115.3833,304.58,60,56,1.47,ID,1731480750
428,luderitz,-26.6481,15.1594,295.43,42,0,9.38,NA,1731480751
429,oskarshamn,57.2645,16.4484,275.92,88,97,2.1,SE,1731480752
430,gulf shores,30.246,-87.7008,296.49,85,20,4.12,US,1731480631
431,at taj,24.2049,23.2857,291.25,34,0,4.44,LY,1731480754
432,monrovia,6.3005,-10.7969,298.5,85,100,2.89,LR,1731480755
433,hammerfest,70.6634,23.6821,281.4,87,75,9.77,NO,1731480756
434,mugia,43.1041,-9.2179,284.77,70,0,12.54,ES,1731480757
435,kerikeri,-35.2268,173.9474,292.54,87,100,2.24,NZ,1731480758
436,hiratacho,35.4333,132.8167,291.13,52,20,6.17,JP,1731480760
437,mumford,5.2618,-0.759,299.63,82,97,1.95,GH,1731480762
438,aioun,16.6614,-9.6149,295.39,18,2,2.91,MR,1731480763
439,teykovo,56.858,40.5369,273.7,88,100,2.75,RU,1731480764
440,gisborne,-38.6533,178.0042,288.46,78,10,4.83,NZ,1731480765
441,guankou,28.15,113.6333,301.28,44,1,3.17,CN,1731480766
442,kencong,-8.2833,113.3667,303.4,70,10,4.66,ID,1731480767
443,barcelos,41.5388,-8.6151,279.68,82,0,2.47,PT,1731480768
444,coronel vivida,-25.9797,-52.5678,281.39,77,0,1.83,BR,1731480770
445,metlili chaamba,32.2667,3.6333,286.67,58,40,1.54,DZ,1731480771
446,gunnison,38.7,-107.0673,267.62,96,9,2.9,US,1731480772
447,makurazaki,31.2667,130.3167,295.05,63,57,1.5,JP,1731480773
448,gherla,47.0333,23.9167,274.43,83,97,0.66,RO,1731480774
449,graaff-reinet,-32.2522,24.5308,291.99,55,0,3.81,ZA,1731480775
450,brisas de zicatela,15.8369,-97.0419,298.07,86,99,2.11,MX,1731480776
451,tsengel,49.4783,100.8894,271.83,39,2,4.0,MN,1731480777
452,saint-mandrier-sur-mer,43.078,5.929,286.91,59,0,3.09,FR,1731480778
453,umm kaddadah,13.6017,26.6876,298.54,17,5,8.63,SD,1731480779
454,puerto santa,-8.9906,-78.6456,290.5,89,100,2.85,PE,1731480781
455,selfoss,63.9331,-20.9971,279.84,82,100,9.46,IS,1731480782
456,kingscliff,-28.2667,153.5667,297.04,94,40,5.14,AU,1731480783
457,arkalyk,50.2486,66.9114,267.42,95,100,8.14,KZ,1731480784
458,villa mercedes,-33.6757,-65.4578,289.39,39,0,4.37,AR,1731480618
459,shaowu,27.3409,117.4831,298.29,73,99,1.74,CN,1731480786
460,arys,42.4252,68.795,278.85,75,100,6.7,KZ,1731480787
461,vila do maio,15.1333,-23.2167,298.71,66,5,4.86,CV,1731480788
462,khalkhal,37.6189,48.5258,275.88,90,97,2.69,IR,1731480789
463,lugovoye,42.9094,72.7178,277.13,96,100,2.17,KZ,1731480791
464,durango,24.8333,-104.8333,285.21,38,0,3.6,MX,1731480792
465,salinas,36.6777,-121.6555,284.29,87,0,0.0,US,1731480698
466,cabedelo,-6.9811,-34.8339,299.52,81,35,4.62,BR,1731480794
467,akureyri,65.6835,-18.0878,282.11,46,0,12.35,IS,1731480795
468,kushtagi,15.7667,76.2,301.49,60,100,5.49,IN,1731480797
469,yakeshi,49.2833,120.7333,273.97,77,29,1.55,CN,1731480798
470,macenta,8.5435,-9.471,293.17,79,100,0.24,GN,1731480799
471,nykvarn,59.8,18.3,274.14,87,100,3.89,SE,1731480801
472,irtyshsk,53.3333,75.4572,265.51,80,100,6.78,KZ,1731480802
473,sorong,-0.8833,131.25,302.29,72,99,4.24,ID,1731480803
474,posto fiscal rolim de moura,-13.0833,-62.2667,292.59,98,100,2.37,BR,1731480804
475,ndjole,-0.1783,10.7649,299.9,88,90,0.51,GA,1731480805
476,uusikaupunki,60.8004,21.4084,279.19,80,100,6.54,FI,1731480806
477,inarajan village,13.2736,144.7484,302.69,85,100,11.64,GU,1731480807
478,walvis bay,-22.9575,14.5053,286.68,94,39,4.12,NA,1731480808
479,sangkhla buri,15.1555,98.4536,306.74,41,20,2.14,TH,1731480809
480,port macquarie,-31.4333,152.9167,292.78,90,100,1.83,AU,1731480810
481,kataba,8.4604,-0.7732,299.61,59,18,0.56,GH,1731480812
482,buba,11.5833,-15.0,296.79,75,100,0.76,GW,1731480813
483,komotini,41.1228,25.3964,284.85,78,100,0.89,GR,1731480814
484,glarus,47.0406,9.068,279.51,71,33,1.76,CH,1731480815
485,kiruna,67.8557,20.2251,279.66,65,75,6.69,SE,1731480816
486,saint croix,17.7397,-64.7388,298.4,89,0,0.0,VI,1731480817
487,mogok,22.9167,96.5,296.85,42,3,1.78,MM,1731480818
488,bougouni,11.417,-7.479,295.82,41,100,0.79,ML,1731480819
489,namibe,-15.1961,12.1522,298.19,62,100,2.18,AO,1731480820
490,ribeira brava,32.65,-17.0667,293.5,63,6,2.49,PT,1731480821
491,mahibadhoo,3.7833,72.9667,301.67,71,17,4.57,MV,1731480823
492,chui,-33.6971,-53.4616,285.36,78,99,3.65,UY,1731480824
493,nar'yan-mar,67.6713,53.087,266.43,95,100,4.79,RU,1731480825
494,pachino,36.7186,15.0907,290.97,80,100,3.22,IT,1731480826
495,vershino-darasunskiy,52.35,115.5167,270.66,64,20,3.71,RU,1731480827
496,tavarede,40.1708,-8.8457,283.99,56,0,8.35,PT,1731480829
497,warrington,53.3925,-2.5802,278.03,94,40,1.54,GB,1731480638
498,geraldton,-28.7667,114.6,301.38,44,0,9.26,AU,1731480831
499,biloela,-24.4167,150.5,305.66,37,100,5.99,AU,1731480833
500,hobyo,5.3505,48.5268,302.03,67,68,7.92,SO,1731480834
501,baikonur,45.6167,63.3167,274.03,45,1,6.26,KZ,1731480835
502,motygino,58.1831,94.7592,262.36,76,100,4.46,RU,1731480836
503,karoi,-16.8099,29.6925,298.13,57,100,4.2,ZW,1731480837
504,boguchar,49.9358,40.545,275.17,66,20,2.07,RU,1731480838
505,flying fish cove,-10.4217,105.6791,300.97,94,100,4.63,CX,1731480839
506,port blair,11.6667,92.75,304.17,74,40,3.6,IN,1731480840
507,kaa-khem,51.6833,94.7333,268.36,27,64,0.89,RU,1731480841
508,sumbe,-11.2061,13.8437,299.42,80,100,1.55,AO,1731480816
509,zhigalovo,54.8097,105.1578,265.94,52,99,3.67,RU,1731480844
510,maun,-19.9833,23.4167,297.13,73,0,3.09,BW,1731480845
511,las vegas,36.175,-115.1372,285.53,24,0,3.09,US,1731480600
512,banjarmasin,-3.3244,114.591,301.23,48,6,3.2,ID,1731480847
513,ekibastuz,51.6667,75.3667,266.24,68,100,8.28,KZ,1731480848
514,broome,42.2506,-75.833,271.75,87,5,0.89,US,1731480849
515,hilo,19.7297,-155.09,296.53,95,40,0.45,US,1731480850
516,illizi,26.4833,8.4667,292.79,35,100,1.17,DZ,1731480851
517,majene,-3.5403,118.9707,301.39,75,56,2.87,ID,1731480852
518,taveta,-3.3963,37.6736,300.35,54,7,2.5,KE,1731480854
519,bubaque,11.2833,-15.8333,302.02,55,100,2.73,GW,1731480855
520,gotse delchev,41.5667,23.7333,281.87,92,100,0.69,BG,1731480856
521,saint-philippe,-21.3585,55.7679,298.53,70,4,4.88,RE,1731480857
522,remire-montjoly,4.9167,-52.2667,299.17,94,75,1.03,GF,1731480858
523,uray,60.1247,64.7758,259.48,77,6,1.62,RU,1731480859
524,pandan,14.0453,124.1694,299.92,86,100,5.93,PH,1731480860
525,baganga,7.5739,126.56,301.68,80,69,2.44,PH,1731480861
526,moires,35.0532,24.8744,295.49,74,20,0.84,GR,1731480862
527,nemuro,43.3236,145.575,277.19,58,31,9.4,JP,1731480864
528,papao,-17.75,-149.55,299.97,76,100,8.59,PF,1731480865
529,bizerte,37.2744,9.8739,285.15,100,40,0.0,TN,1731480866
530,kotamangalam,10.0667,76.6333,305.99,62,100,1.45,IN,1731480867
531,adam,22.3756,57.5233,302.71,28,8,0.24,OM,1731480601
532,nadym,65.5333,72.5167,252.59,99,82,4.39,RU,1731480773
533,boyolangu,-8.1181,111.8935,303.97,66,50,3.55,ID,1731480870
534,kenai,60.5544,-151.2583,262.18,100,0,0.0,US,1731480833
535,pedernales,18.0384,-71.744,299.39,72,89,1.54,DO,1731480872
536,veshenskaya,49.6303,41.7334,275.42,67,20,2.21,RU,1731480873
537,yemetsk,63.4721,41.7941,272.93,88,100,3.33,RU,1731480875
538,san carlos de bariloche,-41.1456,-71.3082,279.01,81,0,1.54,AR,1731480603
539,hoemul-li,41.4339,129.67,285.4,57,3,0.65,KP,1731480877
540,mili,6.0815,171.735,301.82,71,100,3.96,MH,1731480878
541,kitui,-1.367,38.0106,296.33,68,15,2.05,KE,1731480879
542,chabahar,25.2919,60.643,301.19,48,0,1.36,IR,1731480880
543,aripuana,-9.1667,-60.6333,295.25,100,100,0.78,BR,1731480881
544,bikenibeu village,1.3673,173.1241,302.13,70,20,5.66,KI,1731480882
545,timmins,48.4669,-81.3331,268.05,93,0,3.6,CA,1731480815
546,palangkaraya,-2.2,113.8333,305.61,55,95,0.99,ID,1731480884
547,kalymnos,36.95,26.9833,291.89,82,0,1.54,GR,1731480886
548,mount pearl,47.5166,-52.7813,285.55,98,100,6.17,CA,1731480887
549,porto novo,6.4965,2.6036,299.05,82,100,0.63,BJ,1731480889
550,jiangyou,31.7667,104.7167,291.85,73,75,2.36,CN,1731480890
551,churapcha,62.0025,132.4325,252.93,98,54,2.71,RU,1731480891
552,pitimbu,-7.4706,-34.8086,298.18,80,0,4.43,BR,1731480892
553,juneau,58.3019,-134.4197,276.16,100,100,0.0,US,1731480893
554,jodhpur,26.2867,73.03,304.24,19,0,1.73,IN,1731480895
555,camayenne,9.535,-13.6878,299.2,94,75,3.09,GN,1731480896
556,carbonear,47.7332,-53.2148,285.38,96,100,2.05,CA,1731480897
557,lensk,60.7253,114.9278,263.05,85,100,5.13,RU,1731480898
558,el porvenir,13.7617,-87.3458,295.07,98,100,0.85,HN,1731480899
559,kapuskasing,49.4169,-82.4331,269.15,100,20,4.63,CA,1731480900
560,canico,32.6333,-16.85,293.5,82,40,4.12,PT,1731480901
561,novodvinsk,64.4165,40.8122,272.01,92,100,3.98,RU,1731480902
562,devonport,-41.1667,146.35,292.88,55,5,1.34,AU,1731480903
563,mantenopolis,-18.8625,-41.1228,293.6,98,43,1.32,BR,1731480904
564,binhe,32.6883,112.8275,294.09,55,93,4.07,CN,1731480906
565,madalena,41.2162,-8.3345,280.68,71,0,1.65,PT,1731480907
566,pohang,36.0322,129.365,289.06,60,65,3.21,KR,1731480908
567,guerrero negro,27.9769,-114.0611,288.25,87,0,1.46,MX,1731480909
568,alappuzha,9.49,76.3264,301.82,72,100,2.55,IN,1731480910
569,lycksele,64.5954,18.6735,281.08,81,75,2.06,SE,1731480911
570,gamba,-2.65,10.0,297.92,94,100,3.35,GA,1731480912
571,gilgit,35.9221,74.3087,284.75,40,100,1.8,PK,1731480913
572,uribia,11.7139,-72.266,297.96,87,100,2.09,CO,1731480914
573,mbandaka,0.0487,18.2603,299.85,71,85,1.27,CD,1731480915
574,kandava,57.0409,22.7747,277.79,90,98,1.2,LV,1731480917
575,yuzhno-kurilsk,44.0306,145.8556,275.76,59,86,8.33,RU,1731480918
576,alesund,62.4723,6.1549,284.68,72,75,8.23,NO,1731480919
577,alupka,44.4167,34.05,283.89,80,100,3.22,UA,1731480920
578,rawlins,41.7911,-107.2387,272.09,86,100,4.63,US,1731480712
579,galeana,24.8333,-100.0667,288.7,67,0,2.35,MX,1731480922
580,gobabis,-22.45,18.9667,300.71,4,0,7.52,NA,1731480914
581,quellon,-43.1167,-73.6167,283.42,89,100,2.37,CL,1731480924
582,turbat,26.0023,63.044,304.86,11,0,1.54,PK,1731480926
